name,alias,id,review_count,rating,url,location,coordinates
Fitoor Cafe & Grill,fitoor-cafe-and-grill-fresh-meadows-2,qI18SQBMcNTNo4ZqosfEig,56,4.0,https://www.yelp.com/biz/fitoor-cafe-and-grill-fresh-meadows-2?adjust_creative=bMPz0NoFK6qQZAimQncxVw&utm_campaign=yelp_api_v3&utm_medium=api_v3_graphql&utm_source=bMPz0NoFK6qQZAimQncxVw,"{'city': 'Fresh Meadows', 'postal_code': '11366'}","{'latitude': 40.7266456, 'longitude': -73.788371}"
El Tequilazo,el-tequilazo-jamaica,N-yqacjOkrrXsGMgogmZWg,29,3.5,https://www.yelp.com/biz/el-tequilazo-jamaica?adjust_creative=bMPz0NoFK6qQZAimQncxVw&utm_campaign=yelp_api_v3&utm_medium=api_v3_graphql&utm_source=bMPz0NoFK6qQZAimQncxVw,"{'city': 'Jamaica', 'postal_code': '11432'}","{'latitude': 40.7122945231321, 'longitude': -73.7891526480506}"
Staunton's Irish/Peruvian Bar Restaurant,stauntons-irish-peruvian-bar-restaurant-oakland-gardens,YvUKpAeFBBIkdVpX6l8scQ,29,3.5,https://www.yelp.com/biz/stauntons-irish-peruvian-bar-restaurant-oakland-gardens?adjust_creative=bMPz0NoFK6qQZAimQncxVw&utm_campaign=yelp_api_v3&utm_medium=api_v3_graphql&utm_source=bMPz0NoFK6qQZAimQncxVw,"{'city': 'Oakland Gardens', 'postal_code': '11364'}","{'latitude': 40.735996, 'longitude': -73.7464134}"
Tropical Fantasy Bar & Lounge,tropical-fantasy-bar-and-lounge-jamaica,O2dZuxkdsRH1NBZ2c1pwpQ,16,3.5,https://www.yelp.com/biz/tropical-fantasy-bar-and-lounge-jamaica?adjust_creative=bMPz0NoFK6qQZAimQncxVw&utm_campaign=yelp_api_v3&utm_medium=api_v3_graphql&utm_source=bMPz0NoFK6qQZAimQncxVw,"{'city': 'Jamaica', 'postal_code': '11432'}","{'latitude': 40.70761, 'longitude': -73.786838}"
Pregame Sports Bar & Lounge,pregame-sports-bar-and-lounge-jamaica,0eG1Qw89iBo1FGhbO7KfaQ,4,4.5,https://www.yelp.com/biz/pregame-sports-bar-and-lounge-jamaica?adjust_creative=bMPz0NoFK6qQZAimQncxVw&utm_campaign=yelp_api_v3&utm_medium=api_v3_graphql&utm_source=bMPz0NoFK6qQZAimQncxVw,"{'city': 'Jamaica', 'postal_code': '11432'}","{'latitude': 40.7124795, 'longitude': -73.7850803}"
Berbice Bar and Restaurant,berbice-bar-and-restaurant-jamaica,CCaCeres8c7Wg2TLdwdP7A,7,3.5,https://www.yelp.com/biz/berbice-bar-and-restaurant-jamaica?adjust_creative=bMPz0NoFK6qQZAimQncxVw&utm_campaign=yelp_api_v3&utm_medium=api_v3_graphql&utm_source=bMPz0NoFK6qQZAimQncxVw,"{'city': 'Jamaica', 'postal_code': '11432'}","{'latitude': 40.7076988220215, 'longitude': -73.7863845825195}"
Ncloud69 Bar & Restaurant,ncloud69-bar-and-restaurant-jamaica,11PDQLYhs2iU_oV_KhhuIw,1,5.0,https://www.yelp.com/biz/ncloud69-bar-and-restaurant-jamaica?adjust_creative=bMPz0NoFK6qQZAimQncxVw&utm_campaign=yelp_api_v3&utm_medium=api_v3_graphql&utm_source=bMPz0NoFK6qQZAimQncxVw,"{'city': 'Jamaica', 'postal_code': '11423'}","{'latitude': 40.71367, 'longitude': -73.76223}"
Code Lounge,code-lounge-hollis,GhzMfFC0SNrBf0UmxYH3BA,5,2.0,https://www.yelp.com/biz/code-lounge-hollis?adjust_creative=bMPz0NoFK6qQZAimQncxVw&utm_campaign=yelp_api_v3&utm_medium=api_v3_graphql&utm_source=bMPz0NoFK6qQZAimQncxVw,"{'city': 'Hollis', 'postal_code': '11423'}","{'latitude': 40.7136688, 'longitude': -73.7622299}"
Wickedness Bar & Lounge,wickedness-bar-and-lounge-queens,H1sIdXq4WCI8NUpL1KTKag,1,5.0,https://www.yelp.com/biz/wickedness-bar-and-lounge-queens?adjust_creative=bMPz0NoFK6qQZAimQncxVw&utm_campaign=yelp_api_v3&utm_medium=api_v3_graphql&utm_source=bMPz0NoFK6qQZAimQncxVw,"{'city': 'Queens', 'postal_code': '11432'}","{'latitude': 40.70723, 'longitude': -73.78838}"
729 Bar & Grill,729-bar-and-grill-saint-albans,kxqBjYGnxjC1pQE8-OYmUg,2,3.0,https://www.yelp.com/biz/729-bar-and-grill-saint-albans?adjust_creative=bMPz0NoFK6qQZAimQncxVw&utm_campaign=yelp_api_v3&utm_medium=api_v3_graphql&utm_source=bMPz0NoFK6qQZAimQncxVw,"{'city': 'Saint Albans', 'postal_code': '11412'}","{'latitude': 40.7002691, 'longitude': -73.7537328}"
Nap TIme Liquid Creation,nap-time-liquid-creation-blauvelt,xygb0i04Ug0-V0flZ7gEDg,3,4.5,https://www.yelp.com/biz/nap-time-liquid-creation-blauvelt?adjust_creative=bMPz0NoFK6qQZAimQncxVw&utm_campaign=yelp_api_v3&utm_medium=api_v3_graphql&utm_source=bMPz0NoFK6qQZAimQncxVw,"{'city': 'Blauvelt', 'postal_code': '10913'}","{'latitude': 41.07956, 'longitude': -73.95426}"
